[ {
  "sourceweb" : "http://placehold.it/32x32",
  "type" : "nisi",
  "state" : "thirsty",
  "latitude" : 37.415802,
  "isActive" : true,
  "name" : "Pet of Faye",
  "longitude" : -122.024642,
  "sourcemobile" : "http://placehold.it/32x32",
  "id" : 0
}, {
  "sourceweb" : "http://placehold.it/32x32",
  "type" : "pariatur",
  "state" : "happy",
  "latitude" : 37.416177,
  "isActive" : true,
  "name" : "Pet of Sosa",
  "longitude" : -122.027367,
  "sourcemobile" : "http://placehold.it/32x32",
  "id" : 1
}, {
  "sourceweb" : "http://placehold.it/32x32",
  "type" : "ea",
  "state" : "dying",
  "latitude" : 37.417302,
  "isActive" : false,
  "name" : "Pet of Hope",
  "longitude" : -122.024277,
  "sourcemobile" : "http://placehold.it/32x32",
  "id" : 2
}, {
  "sourceweb" : "http://placehold.it/32x32",
  "type" : "officia",
  "state" : "happy",
  "latitude" : 37.418017,
  "isActive" : false,
  "name" : "Pet of Guthrie",
  "longitude" : -122.023634,
  "sourcemobile" : "http://placehold.it/32x32",
  "id" : 3
}, {
  "sourceweb" : "http://placehold.it/32x32",
  "type" : "amet",
  "state" : "dying",
  "latitude" : 37.419500,
  "isActive" : false,
  "name" : "Pet of Rodgers",
  "longitude" : -122.025865,
  "sourcemobile" : "http://placehold.it/32x32",
  "id" : 4
}, {
  "sourceweb" : "http://placehold.it/32x32",
  "type" : "est",
  "state" : "dying",
  "latitude" : 37.417540,
  "isActive" : false,
  "name" : "Pet of Rhea",
  "longitude" : -122.026938,
  "sourcemobile" : "http://placehold.it/32x32",
  "id" : 5
} ]
