[ {
  "sourceweb" : "http://placehold.it/32x32",
  "type" : "nisi",
  "state" : "thirsty",
  "latitude" : 37.4008811,
  "isActive" : true,
  "name" : "Pet of Faye",
  "longitude" : -122.025,
  "sourcemobile" : "http://placehold.it/32x32",
  "id" : 0
}, {
  "sourceweb" : "http://placehold.it/32x32",
  "type" : "pariatur",
  "state" : "happy",
  "latitude" : 37.4238811,
  "isActive" : true,
  "name" : "Pet of Sosa",
  "longitude" : -122.035,
  "sourcemobile" : "http://placehold.it/32x32",
  "id" : 1
}, {
  "sourceweb" : "http://placehold.it/32x32",
  "type" : "ea",
  "state" : "dying",
  "latitude" : 37.4118811,
  "isActive" : false,
  "name" : "Pet of Hope",
  "longitude" : -122.047,
  "sourcemobile" : "http://placehold.it/32x32",
  "id" : 2
}, {
  "sourceweb" : "http://placehold.it/32x32",
  "type" : "officia",
  "state" : "happy",
  "latitude" : 37.4018811,
  "isActive" : false,
  "name" : "Pet of Guthrie",
  "longitude" : -122.065,
  "sourcemobile" : "http://placehold.it/32x32",
  "id" : 3
}, {
  "sourceweb" : "http://placehold.it/32x32",
  "type" : "amet",
  "state" : "dying",
  "latitude" : 37.4168811,
  "isActive" : false,
  "name" : "Pet of Rodgers",
  "longitude" : -122.090,
  "sourcemobile" : "http://placehold.it/32x32",
  "id" : 4
}, {
  "sourceweb" : "http://placehold.it/32x32",
  "type" : "est",
  "state" : "dying",
  "latitude" : 37.4068811,
  "isActive" : false,
  "name" : "Pet of Rhea",
  "longitude" : -122.125,
  "sourcemobile" : "http://placehold.it/32x32",
  "id" : 5
} ]
